[
  {
    "business_id": "MTSW4McQd7CbVtyjqoe9mw",
    "address": "935 Race St",
    "attributes": {
      "Alcohol": "none",
      "BikeParking": "True",
      "BusinessAcceptsCreditCards": "False",
      "BusinessParking": "{'garage': False, 'street': True, 'validated': False, 'lot': False, 'valet': False}",
      "ByAppointmentOnly": "False",
      "Caters": "True",
      "OutdoorSeating": "False",
      "RestaurantsDelivery": "False",
      "RestaurantsPriceRange2": "1",
      "RestaurantsTakeOut": "True",
      "WiFi": "free"
    },
    "categories": "Restaurants, Food, Bubble Tea, Coffee & Tea, Bakeries",
    "city": "Philadelphia",
    "hours": {
      "Friday": "7:0-21:0",
      "Monday": "7:0-20:0",
      "Saturday": "7:0-21:0",
      "Sunday": "7:0-21:0",
      "Thursday": "7:0-20:0",
      "Tuesday": "7:0-20:0",
      "Wednesday": "7:0-20:0"
    },
    "is_open": 1,
    "latitude": 39.9555052,
    "longitude": -75.1555641,
    "name": "St Honore Pastries",
    "postal_code": "19107",
    "review_count": 80,
    "stars": 4.0,
    "state": "PA",
    "most.recent": "2021-06-21 19:59:50",
    "num_checkins": 13,
    "num_reviews": 1
  },
  {
    "business_id": "mWMc6_wTdE0EUBKIGXDVfA",
    "address": "101 Walnut St",
    "attributes": {
      "BikeParking": "True",
      "BusinessAcceptsCreditCards": "True",
      "BusinessParking": "{'garage': None, 'street': None, 'validated': None, 'lot': True, 'valet': False}",
      "Caters": "False",
      "GoodForKids": "True",
      "RestaurantsTakeOut": "True",
      "WheelchairAccessible": "True"
    },
    "categories": "Brewpubs, Breweries, Food",
    "city": "Green Lane",
    "hours": {
      "Friday": "12:0-22:0",
      "Saturday": "12:0-22:0",
      "Sunday": "12:0-18:0",
      "Thursday": "16:0-22:0",
      "Wednesday": "14:0-22:0"
    },
    "is_open": 1,
    "latitude": 40.3381827,
    "longitude": -75.4716585,
    "name": "Perkiomen Valley Brewery",
    "postal_code": "18054",
    "review_count": 13,
    "stars": 4.5,
    "state": "PA",
    "most.recent": "2018-07-12 21:34:36",
    "num_checkins": 10,
    "num_reviews": 1
  },
  {
    "business_id": "mpf3x-BjTdTEA3yCZrAYPw",
    "address": "87 Grasso Plaza Shopping Center",
    "attributes": {
      "BusinessAcceptsCreditCards": "True"
    },
    "categories": "Shipping Centers, Local Services, Notaries, Mailbox Centers, Printing Services",
    "city": "Affton",
    "hours": {
      "Friday": "8:0-18:30",
      "Monday": "0:0-0:0",
      "Saturday": "8:0-14:0",
      "Thursday": "8:0-18:30",
      "Tuesday": "8:0-18:30",
      "Wednesday": "8:0-18:30"
    },
    "is_open": 1,
    "latitude": 38.551126,
    "longitude": -90.335695,
    "name": "The UPS Store",
    "postal_code": "63123",
    "review_count": 15,
    "stars": 3.0,
    "state": "MO",
    "most.recent": "2021-07-25 00:31:02",
    "num_checkins": 1,
    "num_reviews": 1
  }]